{
"type": "FeatureCollection",
"name": "sites_points",
"crs": { "type": "name", "properties": { "name": "urn:ogc:def:crs:OGC:1.3:CRS84" } },
"features": [
{ "type": "Feature", "properties": { "name": "улица Горная", "site_id": 275, "parking_cost": 0.0 }, "geometry": { "type": "Point", "coordinates": [ 88.178576037699628, 69.313456640414302 ] } },
{ "type": "Feature", "properties": { "name": "Плавильный цех", "site_id": 1, "parking_cost": 0.0 }, "geometry": { "type": "Point", "coordinates": [ 88.21453694115074, 69.314577664541446 ] } },
{ "type": "Feature", "properties": { "name": "ХКЦ", "site_id": 2, "parking_cost": 0.0 }, "geometry": { "type": "Point", "coordinates": [ 88.25996812393754, 69.315668572783352 ] } },
{ "type": "Feature", "properties": { "name": "Склад механического завода", "site_id": 3, "parking_cost": 0.0 }, "geometry": { "type": "Point", "coordinates": [ 88.259735753296098, 69.320984679756222 ] } },
{ "type": "Feature", "properties": { "name": "Стройбаза", "site_id": 4, "parking_cost": 0.0 }, "geometry": { "type": "Point", "coordinates": [ 87.966634307584172, 69.315952902736981 ] } },
{ "type": "Feature", "properties": { "name": "РМЦ-2", "site_id": 5, "parking_cost": 0.0 }, "geometry": { "type": "Point", "coordinates": [ 87.969475784829001, 69.32019712496944 ] } },
{ "type": "Feature", "properties": { "name": "АБК \"Южный\"", "site_id": 6, "parking_cost": 0.0 }, "geometry": { "type": "Point", "coordinates": [ 87.964373598963448, 69.32343108179731 ] } },
{ "type": "Feature", "properties": { "name": "Цементный завод", "site_id": 7, "parking_cost": 0.0 }, "geometry": { "type": "Point", "coordinates": [ 88.250666398761666, 69.322204942950975 ] } },
{ "type": "Feature", "properties": { "name": "Утильбаза", "site_id": 8, "parking_cost": 0.0 }, "geometry": { "type": "Point", "coordinates": [ 88.241810763310781, 69.322987555254031 ] } },
{ "type": "Feature", "properties": { "name": "ЦБК", "site_id": 9, "parking_cost": 0.0 }, "geometry": { "type": "Point", "coordinates": [ 87.977733512098652, 69.327931234975196 ] } },
{ "type": "Feature", "properties": { "name": "Насосная (Заводская ул.)", "site_id": 10, "parking_cost": 0.0 }, "geometry": { "type": "Point", "coordinates": [ 88.228576964337876, 69.322662722584681 ] } },
{ "type": "Feature", "properties": { "name": "Пождепо - завод \"Тисма\"", "site_id": 11, "parking_cost": 0.0 }, "geometry": { "type": "Point", "coordinates": [ 87.980584845424914, 69.319626688791729 ] } },
{ "type": "Feature", "properties": { "name": "Аэропорт \"Норильск\"", "site_id": 12, "parking_cost": 0.0 }, "geometry": { "type": "Point", "coordinates": [ 87.340596094414025, 69.32691891497015 ] } },
{ "type": "Feature", "properties": { "name": "Кислородная", "site_id": 13, "parking_cost": 0.0 }, "geometry": { "type": "Point", "coordinates": [ 88.165432215129158, 69.334834485077494 ] } },
{ "type": "Feature", "properties": { "name": "Брызгалы", "site_id": 14, "parking_cost": 0.0 }, "geometry": { "type": "Point", "coordinates": [ 88.005015567605895, 69.328358303621044 ] } },
{ "type": "Feature", "properties": { "name": "Соцгород", "site_id": 15, "parking_cost": 0.0 }, "geometry": { "type": "Point", "coordinates": [ 88.205032024295292, 69.33197912108119 ] } },
{ "type": "Feature", "properties": { "name": "Инспекция рыбоохраны - Газоспасательная служба", "site_id": 16, "parking_cost": 0.0 }, "geometry": { "type": "Point", "coordinates": [ 88.242665236633485, 69.340644682578713 ] } },
{ "type": "Feature", "properties": { "name": "Далдыкан", "site_id": 17, "parking_cost": 0.0 }, "geometry": { "type": "Point", "coordinates": [ 87.871019787723966, 69.32912514487856 ] } },
{ "type": "Feature", "properties": { "name": "улица Набережная", "site_id": 18, "parking_cost": 0.0 }, "geometry": { "type": "Point", "coordinates": [ 88.175896767188235, 69.348283416887668 ] } },
{ "type": "Feature", "properties": { "name": "улица Строительная", "site_id": 19, "parking_cost": 0.0 }, "geometry": { "type": "Point", "coordinates": [ 87.758049795927107, 69.346925251740757 ] } },
{ "type": "Feature", "properties": { "name": "улица Победы", "site_id": 20, "parking_cost": 0.0 }, "geometry": { "type": "Point", "coordinates": [ 87.770152263029516, 69.349829115914162 ] } },
{ "type": "Feature", "properties": { "name": "Норильский почтамт", "site_id": 21, "parking_cost": 0.0 }, "geometry": { "type": "Point", "coordinates": [ 88.187365684816811, 69.34820438932131 ] } },
{ "type": "Feature", "properties": { "name": "улица Первомайская д. 7", "site_id": 22, "parking_cost": 0.0 }, "geometry": { "type": "Point", "coordinates": [ 87.741745823013531, 69.351832525114375 ] } },
{ "type": "Feature", "properties": { "name": "улица Первомайская д. 17", "site_id": 23, "parking_cost": 0.0 }, "geometry": { "type": "Point", "coordinates": [ 87.744414151177963, 69.354749282435776 ] } },
{ "type": "Feature", "properties": { "name": "Каларгон", "site_id": 24, "parking_cost": 0.0 }, "geometry": { "type": "Point", "coordinates": [ 87.802252000782516, 69.339574294471277 ] } },
{ "type": "Feature", "properties": { "name": "Зубгора", "site_id": 25, "parking_cost": 0.0 }, "geometry": { "type": "Point", "coordinates": [ 88.164805178858074, 69.3506253854395 ] } },
{ "type": "Feature", "properties": { "name": "Ритуальный зал", "site_id": 26, "parking_cost": 0.0 }, "geometry": { "type": "Point", "coordinates": [ 88.240356132038528, 69.354491296334331 ] } },
{ "type": "Feature", "properties": { "name": "ГРС", "site_id": 27, "parking_cost": 0.0 }, "geometry": { "type": "Point", "coordinates": [ 88.273994122897534, 69.353355483910775 ] } },
{ "type": "Feature", "properties": { "name": "Насосная (Норильск-Алыкель)", "site_id": 28, "parking_cost": 0.0 }, "geometry": { "type": "Point", "coordinates": [ 88.040608127923448, 69.351971906884387 ] } },
{ "type": "Feature", "properties": { "name": "АДЦ", "site_id": 29, "parking_cost": 0.0 }, "geometry": { "type": "Point", "coordinates": [ 88.166525618222025, 69.3594655831388 ] } },
{ "type": "Feature", "properties": { "name": "Металлургический цех", "site_id": 30, "parking_cost": 0.0 }, "geometry": { "type": "Point", "coordinates": [ 88.119954692345502, 69.360567969042037 ] } },
{ "type": "Feature", "properties": { "name": "Переезд (Медный завод)", "site_id": 31, "parking_cost": 0.0 }, "geometry": { "type": "Point", "coordinates": [ 88.109869631482837, 69.360910285828041 ] } },
{ "type": "Feature", "properties": { "name": "улица Озерная", "site_id": 32, "parking_cost": 0.0 }, "geometry": { "type": "Point", "coordinates": [ 88.37286504011044, 69.358545051083127 ] } },
{ "type": "Feature", "properties": { "name": "Оганер-комплекс", "site_id": 33, "parking_cost": 0.0 }, "geometry": { "type": "Point", "coordinates": [ 88.365073996461632, 69.355145033315353 ] } },
{ "type": "Feature", "properties": { "name": "АЗС (Норильск-Алыкель)", "site_id": 34, "parking_cost": 0.0 }, "geometry": { "type": "Point", "coordinates": [ 88.103521049933462, 69.36268927337845 ] } },
{ "type": "Feature", "properties": { "name": "Воинская часть", "site_id": 35, "parking_cost": 0.0 }, "geometry": { "type": "Point", "coordinates": [ 88.097062197850889, 69.364052434089828 ] } },
{ "type": "Feature", "properties": { "name": "ГТП", "site_id": 36, "parking_cost": 0.0 }, "geometry": { "type": "Point", "coordinates": [ 88.099018702459787, 69.3585882443804 ] } },
{ "type": "Feature", "properties": { "name": "Пождепо (Оганер)", "site_id": 37, "parking_cost": 0.0 }, "geometry": { "type": "Point", "coordinates": [ 88.385858377536266, 69.3586286324703 ] } },
{ "type": "Feature", "properties": { "name": "Городская больница № 1", "site_id": 38, "parking_cost": 0.0 }, "geometry": { "type": "Point", "coordinates": [ 88.40818299744015, 69.358548892285668 ] } },
{ "type": "Feature", "properties": { "name": "турбаза \"Оганер\"", "site_id": 39, "parking_cost": 0.0 }, "geometry": { "type": "Point", "coordinates": [ 88.34321603925325, 69.364509465040697 ] } },
{ "type": "Feature", "properties": { "name": "Магазин (Оганер)", "site_id": 40, "parking_cost": 0.0 }, "geometry": { "type": "Point", "coordinates": [ 88.356457637604848, 69.358088362312444 ] } },
{ "type": "Feature", "properties": { "name": "Хранилище \"Лебяжье\"", "site_id": 41, "parking_cost": 0.0 }, "geometry": { "type": "Point", "coordinates": [ 88.088312355358951, 69.366907941533896 ] } },
{ "type": "Feature", "properties": { "name": "Гараж (Норильск-Алыкель)", "site_id": 42, "parking_cost": 0.0 }, "geometry": { "type": "Point", "coordinates": [ 88.074153029807263, 69.368148958265721 ] } },
{ "type": "Feature", "properties": { "name": "Гидроэлектромонтаж", "site_id": 43, "parking_cost": 0.0 }, "geometry": { "type": "Point", "coordinates": [ 88.067962612954773, 69.372580212002305 ] } },
{ "type": "Feature", "properties": { "name": "Наледная", "site_id": 44, "parking_cost": 0.0 }, "geometry": { "type": "Point", "coordinates": [ 88.320124367270751, 69.369759861920755 ] } },
{ "type": "Feature", "properties": { "name": "Пождепо (Кайеркан)", "site_id": 45, "parking_cost": 0.0 }, "geometry": { "type": "Point", "coordinates": [ 87.758094864830909, 69.357402801151721 ] } },
{ "type": "Feature", "properties": { "name": "поселок Купец", "site_id": 46, "parking_cost": 0.0 }, "geometry": { "type": "Point", "coordinates": [ 88.054752151663791, 69.371900400045632 ] } },
{ "type": "Feature", "properties": { "name": "лыжная база \"Оль-гуль\"", "site_id": 47, "parking_cost": 0.0 }, "geometry": { "type": "Point", "coordinates": [ 88.336192697415527, 69.376381256799988 ] } },
{ "type": "Feature", "properties": { "name": "Амбарная", "site_id": 48, "parking_cost": 0.0 }, "geometry": { "type": "Point", "coordinates": [ 87.518656998991588, 69.376944084472612 ] } },
{ "type": "Feature", "properties": { "name": "Профилакторий", "site_id": 49, "parking_cost": 0.0 }, "geometry": { "type": "Point", "coordinates": [ 88.352206178803172, 69.386694888332983 ] } },
{ "type": "Feature", "properties": { "name": "турбаза \"Лазурная\"", "site_id": 50, "parking_cost": 0.0 }, "geometry": { "type": "Point", "coordinates": [ 88.332560952466622, 69.396023192577715 ] } },
{ "type": "Feature", "properties": { "name": "Гидропорт \"Валёк\"", "site_id": 51, "parking_cost": 0.0 }, "geometry": { "type": "Point", "coordinates": [ 88.365844819501788, 69.393632971123296 ] } },
{ "type": "Feature", "properties": { "name": "поселок Валёк", "site_id": 52, "parking_cost": 0.0 }, "geometry": { "type": "Point", "coordinates": [ 88.310919784295848, 69.402094448877634 ] } },
{ "type": "Feature", "properties": { "name": "Гараж (Валёк)", "site_id": 53, "parking_cost": 0.0 }, "geometry": { "type": "Point", "coordinates": [ 88.299861027230662, 69.405700929181862 ] } },
{ "type": "Feature", "properties": { "name": "Промхоз", "site_id": 54, "parking_cost": 0.0 }, "geometry": { "type": "Point", "coordinates": [ 88.294219271244557, 69.409281907202228 ] } },
{ "type": "Feature", "properties": { "name": "Мост", "site_id": 55, "parking_cost": 0.0 }, "geometry": { "type": "Point", "coordinates": [ 88.293699964658714, 69.412998264575037 ] } },
{ "type": "Feature", "properties": { "name": "Водозабор", "site_id": 56, "parking_cost": 0.0 }, "geometry": { "type": "Point", "coordinates": [ 88.311166920354708, 69.420684215836431 ] } },
{ "type": "Feature", "properties": { "name": "турбаза \"Голубые озера\"", "site_id": 57, "parking_cost": 0.0 }, "geometry": { "type": "Point", "coordinates": [ 88.328074061374693, 69.426204192864233 ] } },
{ "type": "Feature", "properties": { "name": "турбаза \"Жарки\"", "site_id": 58, "parking_cost": 0.0 }, "geometry": { "type": "Point", "coordinates": [ 88.358384421358522, 69.444057698559106 ] } },
{ "type": "Feature", "properties": { "name": "турбаза \"Спортивная\"", "site_id": 59, "parking_cost": 0.0 }, "geometry": { "type": "Point", "coordinates": [ 88.369673595281284, 69.450552753253703 ] } },
{ "type": "Feature", "properties": { "name": "Ж.д. переезд (Вальковское шоссе)", "site_id": 60, "parking_cost": 0.0 }, "geometry": { "type": "Point", "coordinates": [ 88.381138868446712, 69.46417265906905 ] } },
{ "type": "Feature", "properties": { "name": "турбаза \"Березка\"", "site_id": 61, "parking_cost": 0.0 }, "geometry": { "type": "Point", "coordinates": [ 88.376430360749652, 69.456478414485986 ] } },
{ "type": "Feature", "properties": { "name": "рудник \"Маяк\"", "site_id": 62, "parking_cost": 0.0 }, "geometry": { "type": "Point", "coordinates": [ 88.417796288375243, 69.486219127938156 ] } },
{ "type": "Feature", "properties": { "name": "Очистные (Талнах)", "site_id": 63, "parking_cost": 0.0 }, "geometry": { "type": "Point", "coordinates": [ 88.356965243470199, 69.504129784108827 ] } },
{ "type": "Feature", "properties": { "name": "ТОФ (северная часть)", "site_id": 64, "parking_cost": 0.0 }, "geometry": { "type": "Point", "coordinates": [ 88.364818423243591, 69.506527125692088 ] } },
{ "type": "Feature", "properties": { "name": "ТОФ (южная часть)", "site_id": 65, "parking_cost": 0.0 }, "geometry": { "type": "Point", "coordinates": [ 88.374776429083397, 69.50343454828355 ] } },
{ "type": "Feature", "properties": { "name": "ТЭЦ-2", "site_id": 66, "parking_cost": 0.0 }, "geometry": { "type": "Point", "coordinates": [ 88.333637144739384, 69.518329680234658 ] } },
{ "type": "Feature", "properties": { "name": "рудник \"Октябрьский\"", "site_id": 67, "parking_cost": 0.0 }, "geometry": { "type": "Point", "coordinates": [ 88.333199884497205, 69.524171335926638 ] } },
{ "type": "Feature", "properties": { "name": "рудник \"Таймырский\"", "site_id": 68, "parking_cost": 0.0 }, "geometry": { "type": "Point", "coordinates": [ 88.355278076580831, 69.531266662242643 ] } },
{ "type": "Feature", "properties": { "name": "Гараж (рудник \"Таймырский\")", "site_id": 69, "parking_cost": 0.0 }, "geometry": { "type": "Point", "coordinates": [ 88.339206004904113, 69.533896950737969 ] } },
{ "type": "Feature", "properties": { "name": "Поворот (Талнах)", "site_id": 70, "parking_cost": 0.0 }, "geometry": { "type": "Point", "coordinates": [ 88.309995189586388, 69.529892779905524 ] } },
{ "type": "Feature", "properties": { "name": "рудник \"Октябрьский\" (вспомогательная площадка)", "site_id": 71, "parking_cost": 0.0 }, "geometry": { "type": "Point", "coordinates": [ 88.325117268145235, 69.535530716623683 ] } },
{ "type": "Feature", "properties": { "name": "Перекресток (поворот на Дудинку)", "site_id": 72, "parking_cost": 0.0 }, "geometry": { "type": "Point", "coordinates": [ 87.368507698579222, 69.374203012498612 ] } },
{ "type": "Feature", "properties": { "name": "улица Кравца", "site_id": 73, "parking_cost": 0.0 }, "geometry": { "type": "Point", "coordinates": [ 88.386366581654599, 69.481118719761582 ] } },
{ "type": "Feature", "properties": { "name": "ТЭЦ-1", "site_id": 74, "parking_cost": 0.0 }, "geometry": { "type": "Point", "coordinates": [ 88.223825472956293, 69.335550669158934 ] } },
{ "type": "Feature", "properties": { "name": "улица Комсомольская", "site_id": 75, "parking_cost": 0.0 }, "geometry": { "type": "Point", "coordinates": [ 88.181401577529329, 69.352515665263567 ] } },
{ "type": "Feature", "properties": { "name": "Поликлиника (Кайеркан)", "site_id": 76, "parking_cost": 0.0 }, "geometry": { "type": "Point", "coordinates": [ 87.764065140073967, 69.353077415708626 ] } },
{ "type": "Feature", "properties": { "name": "ВЭМ", "site_id": 77, "parking_cost": 0.0 }, "geometry": { "type": "Point", "coordinates": [ 88.342417559129615, 69.513695648333211 ] } },
{ "type": "Feature", "properties": { "name": "улица Орджоникидзе - площадь Металлургов", "site_id": 78, "parking_cost": 0.0 }, "geometry": { "type": "Point", "coordinates": [ 88.18065012159424, 69.357983354259645 ] } },
{ "type": "Feature", "properties": { "name": "Медный завод", "site_id": 79, "parking_cost": 0.0 }, "geometry": { "type": "Point", "coordinates": [ 88.12956446518254, 69.359075750639036 ] } },
{ "type": "Feature", "properties": { "name": "улица Федоровского д. 21", "site_id": 80, "parking_cost": 0.0 }, "geometry": { "type": "Point", "coordinates": [ 88.383277793105293, 69.495120874919735 ] } },
{ "type": "Feature", "properties": { "name": "Поликлиника - улица Федоровского", "site_id": 81, "parking_cost": 0.0 }, "geometry": { "type": "Point", "coordinates": [ 88.396691704000148, 69.489926569370951 ] } },
{ "type": "Feature", "properties": { "name": "Торгмонтаж", "site_id": 82, "parking_cost": 0.0 }, "geometry": { "type": "Point", "coordinates": [ 88.090762685890908, 69.357386135918958 ] } },
{ "type": "Feature", "properties": { "name": "Рудоуправление", "site_id": 83, "parking_cost": 0.0 }, "geometry": { "type": "Point", "coordinates": [ 88.195284357041785, 69.319110467798922 ] } },
{ "type": "Feature", "properties": { "name": "Ленинский проспект - кафе \"Поляна\"", "site_id": 84, "parking_cost": 0.0 }, "geometry": { "type": "Point", "coordinates": [ 88.187570790067682, 69.356534528680598 ] } },
{ "type": "Feature", "properties": { "name": "Автохозяйство", "site_id": 85, "parking_cost": 0.0 }, "geometry": { "type": "Point", "coordinates": [ 88.229360724089133, 69.332366904283901 ] } },
{ "type": "Feature", "properties": { "name": "Насосная (тер. Нефтебазы)", "site_id": 86, "parking_cost": 0.0 }, "geometry": { "type": "Point", "coordinates": [ 88.168400036328862, 69.34234270980852 ] } },
{ "type": "Feature", "properties": { "name": "улица Строителей", "site_id": 87, "parking_cost": 0.0 }, "geometry": { "type": "Point", "coordinates": [ 88.400378170375674, 69.485906260002622 ] } },
{ "type": "Feature", "properties": { "name": "улица Энергетическая д. 7", "site_id": 88, "parking_cost": 0.0 }, "geometry": { "type": "Point", "coordinates": [ 88.209928559665912, 69.325187160788388 ] } },
{ "type": "Feature", "properties": { "name": "проезд Котульского - магазин \"Жар птица\"", "site_id": 89, "parking_cost": 0.0 }, "geometry": { "type": "Point", "coordinates": [ 88.186116699998124, 69.36342321408975 ] } },
{ "type": "Feature", "properties": { "name": "магазин \"Эльдорадо\"", "site_id": 90, "parking_cost": 0.0 }, "geometry": { "type": "Point", "coordinates": [ 88.208023955930813, 69.359998157041304 ] } },
{ "type": "Feature", "properties": { "name": "Центр полярной медицины - улица Ветеранов", "site_id": 91, "parking_cost": 0.0 }, "geometry": { "type": "Point", "coordinates": [ 88.226933944732195, 69.341735349072508 ] } },
{ "type": "Feature", "properties": { "name": "Спецэнергомонтаж - УВВС", "site_id": 92, "parking_cost": 0.0 }, "geometry": { "type": "Point", "coordinates": [ 88.220203918816196, 69.329093633071111 ] } },
{ "type": "Feature", "properties": { "name": "улица Рудная д. 39", "site_id": 93, "parking_cost": 0.0 }, "geometry": { "type": "Point", "coordinates": [ 88.40973717045155, 69.492555539445874 ] } },
{ "type": "Feature", "properties": { "name": "Складское хозяйство", "site_id": 94, "parking_cost": 0.0 }, "geometry": { "type": "Point", "coordinates": [ 88.185361636467945, 69.331284830977594 ] } },
{ "type": "Feature", "properties": { "name": "улица Новая (восточная часть)", "site_id": 95, "parking_cost": 0.0 }, "geometry": { "type": "Point", "coordinates": [ 88.39790008317496, 69.500197273612883 ] } },
{ "type": "Feature", "properties": { "name": "улица Нансена", "site_id": 96, "parking_cost": 0.0 }, "geometry": { "type": "Point", "coordinates": [ 88.166716465780567, 69.354247457587007 ] } },
{ "type": "Feature", "properties": { "name": "улица Заводская - площадь Завенягина - Механический завод", "site_id": 97, "parking_cost": 0.0 }, "geometry": { "type": "Point", "coordinates": [ 88.204680069104526, 69.316823268811532 ] } },
{ "type": "Feature", "properties": { "name": "АТО ЦАТК", "site_id": 98, "parking_cost": 0.0 }, "geometry": { "type": "Point", "coordinates": [ 88.178817987666221, 69.324288328807384 ] } },
{ "type": "Feature", "properties": { "name": "Гараж (Рудная ул.)", "site_id": 99, "parking_cost": 0.0 }, "geometry": { "type": "Point", "coordinates": [ 88.408000077727195, 69.487829068990834 ] } },
{ "type": "Feature", "properties": { "name": "улица Лауреатов д. 85 - Тубдиспансер", "site_id": 100, "parking_cost": 0.0 }, "geometry": { "type": "Point", "coordinates": [ 88.202631095324691, 69.363249739376826 ] } },
{ "type": "Feature", "properties": { "name": "Институт - Детская больница", "site_id": 101, "parking_cost": 0.0 }, "geometry": { "type": "Point", "coordinates": [ 88.215096700420901, 69.339826957173187 ] } },
{ "type": "Feature", "properties": { "name": "улица Дудинская", "site_id": 102, "parking_cost": 0.0 }, "geometry": { "type": "Point", "coordinates": [ 88.365474516259198, 69.493908345562446 ] } },
{ "type": "Feature", "properties": { "name": "Дворец спорта \"Арктика\"", "site_id": 103, "parking_cost": 0.0 }, "geometry": { "type": "Point", "coordinates": [ 88.195479749801876, 69.342528478764521 ] } },
{ "type": "Feature", "properties": { "name": "улица Федоровского д. 23", "site_id": 104, "parking_cost": 0.0 }, "geometry": { "type": "Point", "coordinates": [ 88.37691178015838, 69.497575872941894 ] } },
{ "type": "Feature", "properties": { "name": "улица Новая", "site_id": 105, "parking_cost": 0.0 }, "geometry": { "type": "Point", "coordinates": [ 88.390500074765029, 69.498769270239976 ] } },
{ "type": "Feature", "properties": { "name": "База № 2 (тер. Нефтебазы)", "site_id": 106, "parking_cost": 0.0 }, "geometry": { "type": "Point", "coordinates": [ 88.165083265473243, 69.338489685392759 ] } },
{ "type": "Feature", "properties": { "name": "турбаза \"Сияние\"", "site_id": 107, "parking_cost": 0.0 }, "geometry": { "type": "Point", "coordinates": [ 88.341069335449447, 69.391449649134898 ] } },
{ "type": "Feature", "properties": { "name": "улица Ленинградская - магазин \"Северок\"", "site_id": 108, "parking_cost": 0.0 }, "geometry": { "type": "Point", "coordinates": [ 88.191772937263607, 69.354550616771689 ] } },
{ "type": "Feature", "properties": { "name": "площадь Газовиков - Художественная галерея", "site_id": 109, "parking_cost": 0.0 }, "geometry": { "type": "Point", "coordinates": [ 88.193950013319281, 69.362698984074754 ] } },
{ "type": "Feature", "properties": { "name": "Детская поликлиника,Детская поликлиника", "site_id": 110, "parking_cost": 0.0 }, "geometry": { "type": "Point", "coordinates": [ 88.387970527783608, 69.490940317352042 ] } },
{ "type": "Feature", "properties": { "name": "улица Спортивная - улица Пионерская", "site_id": 111, "parking_cost": 0.0 }, "geometry": { "type": "Point", "coordinates": [ 88.376216088583021, 69.486274514978334 ] } },
{ "type": "Feature", "properties": { "name": "завод \"Стройкомплект\"", "site_id": 112, "parking_cost": 0.0 }, "geometry": { "type": "Point", "coordinates": [ 88.076875307816849, 69.358483149254951 ] } },
{ "type": "Feature", "properties": { "name": "Круглое озеро", "site_id": 113, "parking_cost": 0.0 }, "geometry": { "type": "Point", "coordinates": [ 88.219295766106356, 69.332667814678246 ] } },
{ "type": "Feature", "properties": { "name": "Храм - Противопожарная служба", "site_id": 114, "parking_cost": 0.0 }, "geometry": { "type": "Point", "coordinates": [ 88.227057085456437, 69.345297192451113 ] } },
{ "type": "Feature", "properties": { "name": "улица Павлова", "site_id": 115, "parking_cost": 0.0 }, "geometry": { "type": "Point", "coordinates": [ 88.219899979989336, 69.350437809753089 ] } },
{ "type": "Feature", "properties": { "name": "Норильсктрансремонт", "site_id": 116, "parking_cost": 0.0 }, "geometry": { "type": "Point", "coordinates": [ 88.21949998537724, 69.321475781388997 ] } },
{ "type": "Feature", "properties": { "name": "улица Талнахская - улица Анисимова", "site_id": 117, "parking_cost": 0.0 }, "geometry": { "type": "Point", "coordinates": [ 88.220682089300155, 69.347456063603602 ] } },
{ "type": "Feature", "properties": { "name": "Трест - улица Рудная - улица Первопроходцев д. 13", "site_id": 118, "parking_cost": 0.0 }, "geometry": { "type": "Point", "coordinates": [ 88.407833286889044, 69.498078312505939 ] } },
{ "type": "Feature", "properties": { "name": "улица Первомайская д. 26", "site_id": 119, "parking_cost": 0.0 }, "geometry": { "type": "Point", "coordinates": [ 87.750525314011199, 69.355403518037349 ] } },
{ "type": "Feature", "properties": { "name": "Илан-Норильск", "site_id": 120, "parking_cost": 0.0 }, "geometry": { "type": "Point", "coordinates": [ 88.229660265775806, 69.351774740907359 ] } },
{ "type": "Feature", "properties": { "name": "улица Вокзальная", "site_id": 121, "parking_cost": 0.0 }, "geometry": { "type": "Point", "coordinates": [ 88.148950647785014, 69.35693811538934 ] } },
{ "type": "Feature", "properties": { "name": "Вальковское шоссе", "site_id": 122, "parking_cost": 0.0 }, "geometry": { "type": "Point", "coordinates": [ 88.233096110613232, 69.337695620829365 ] } },
{ "type": "Feature", "properties": { "name": "Школа № 30", "site_id": 123, "parking_cost": 0.0 }, "geometry": { "type": "Point", "coordinates": [ 88.378401875827208, 69.490659496687627 ] } },
{ "type": "Feature", "properties": { "name": "Управление НЖД", "site_id": 124, "parking_cost": 0.0 }, "geometry": { "type": "Point", "coordinates": [ 88.137681701760386, 69.357219169098215 ] } },
{ "type": "Feature", "properties": { "name": "Площадь Горняков", "site_id": 125, "parking_cost": 0.0 }, "geometry": { "type": "Point", "coordinates": [ 88.386769244220858, 69.484727486525998 ] } },
{ "type": "Feature", "properties": { "name": "улица Красноярская", "site_id": 126, "parking_cost": 0.0 }, "geometry": { "type": "Point", "coordinates": [ 88.173973897227896, 69.356459513939157 ] } },
{ "type": "Feature", "properties": { "name": "Поликлиника - Больничный городок", "site_id": 127, "parking_cost": 0.0 }, "geometry": { "type": "Point", "coordinates": [ 88.210687475502837, 69.348688637999047 ] } },
{ "type": "Feature", "properties": { "name": "АБК механического завода", "site_id": 128, "parking_cost": 0.0 }, "geometry": { "type": "Point", "coordinates": [ 88.212031229019004, 69.319890224654841 ] } },
{ "type": "Feature", "properties": { "name": "Торговый центр (Кайеркан)", "site_id": 129, "parking_cost": 0.0 }, "geometry": { "type": "Point", "coordinates": [ 87.753021596348461, 69.350641225298759 ] } },
{ "type": "Feature", "properties": { "name": "улица Талнахская д. 71 - улица Ленинградская", "site_id": 130, "parking_cost": 0.0 }, "geometry": { "type": "Point", "coordinates": [ 88.198585796259835, 69.358358479273363 ] } },
{ "type": "Feature", "properties": { "name": "0 пикет", "site_id": 131, "parking_cost": 0.0 }, "geometry": { "type": "Point", "coordinates": [ 88.18708697629647, 69.317200865264951 ] } },
{ "type": "Feature", "properties": { "name": "улица Федоровского д. 19", "site_id": 132, "parking_cost": 0.0 }, "geometry": { "type": "Point", "coordinates": [ 88.38632356599814, 69.493889327587297 ] } },
{ "type": "Feature", "properties": { "name": "Управление главного механика - ИТУ-спецстрой", "site_id": 133, "parking_cost": 0.0 }, "geometry": { "type": "Point", "coordinates": [ 88.204235911032981, 69.321935290677189 ] } },
{ "type": "Feature", "properties": { "name": "Нефтебаза", "site_id": 134, "parking_cost": 0.0 }, "geometry": { "type": "Point", "coordinates": [ 88.171747106240204, 69.329588218226576 ] } },
{ "type": "Feature", "properties": { "name": "улица Енисейская", "site_id": 135, "parking_cost": 0.0 }, "geometry": { "type": "Point", "coordinates": [ 88.393285690620516, 69.493678482602505 ] } },
{ "type": "Feature", "properties": { "name": "Школа № 20", "site_id": 136, "parking_cost": 0.0 }, "geometry": { "type": "Point", "coordinates": [ 88.38918580392307, 69.487233489398079 ] } },
{ "type": "Feature", "properties": { "name": "Городской центр культуры", "site_id": 137, "parking_cost": 0.0 }, "geometry": { "type": "Point", "coordinates": [ 88.189557244209098, 69.359451471681624 ] } },
{ "type": "Feature", "properties": { "name": "Школа № 6 - Городской парк", "site_id": 138, "parking_cost": 0.0 }, "geometry": { "type": "Point", "coordinates": [ 88.194159968885501, 69.34593226973125 ] } },
{ "type": "Feature", "properties": { "name": "улица Энтузиастов", "site_id": 139, "parking_cost": 0.0 }, "geometry": { "type": "Point", "coordinates": [ 88.400385685144826, 69.493346044030304 ] } },
{ "type": "Feature", "properties": { "name": "улица Игарская", "site_id": 140, "parking_cost": 0.0 }, "geometry": { "type": "Point", "coordinates": [ 88.362356818195721, 69.496860028879311 ] } },
{ "type": "Feature", "properties": { "name": "Гараж (Октябрьская ул.)", "site_id": 141, "parking_cost": 0.0 }, "geometry": { "type": "Point", "coordinates": [ 88.206160336272504, 69.327848750430675 ] } },
{ "type": "Feature", "properties": { "name": "магазин \"Океан\"", "site_id": 142, "parking_cost": 0.0 }, "geometry": { "type": "Point", "coordinates": [ 88.21544153728145, 69.355376531429002 ] } },
{ "type": "Feature", "properties": { "name": "НОФ", "site_id": 143, "parking_cost": 0.0 }, "geometry": { "type": "Point", "coordinates": [ 88.168666360173319, 69.30941176833916 ] } },
{ "type": "Feature", "properties": { "name": "Управление комбината -Гвардейская площадь - универмаг \"Талнах\"", "site_id": 144, "parking_cost": 0.0 }, "geometry": { "type": "Point", "coordinates": [ 88.212128513186315, 69.343798462555625 ] } },
{ "type": "Feature", "properties": { "name": "База № 2 (Рудная ул.)", "site_id": 145, "parking_cost": 0.0 }, "geometry": { "type": "Point", "coordinates": [ 88.384209121316232, 69.501390487025944 ] } },
{ "type": "Feature", "properties": { "name": "ОВЦ", "site_id": 146, "parking_cost": 0.0 }, "geometry": { "type": "Point", "coordinates": [ 88.22214865685477, 69.317310954785924 ] } },
{ "type": "Feature", "properties": { "name": "5 микрорайон", "site_id": 147, "parking_cost": 0.0 }, "geometry": { "type": "Point", "coordinates": [ 88.397500374735316, 69.496587992276275 ] } },
{ "type": "Feature", "properties": { "name": "рудник \"Заполярный\"", "site_id": 148, "parking_cost": 0.0 }, "geometry": { "type": "Point", "coordinates": [ 88.159099687020884, 69.305957338906765 ] } },
{ "type": "Feature", "properties": { "name": "улица Бауманская", "site_id": 149, "parking_cost": 0.0 }, "geometry": { "type": "Point", "coordinates": [ 88.372717163937295, 69.493503371669632 ] } },
{ "type": "Feature", "properties": { "name": "Хлебозавод", "site_id": 150, "parking_cost": 0.0 }, "geometry": { "type": "Point", "coordinates": [ 88.223463129470133, 69.338399170131225 ] } },
{ "type": "Feature", "properties": { "name": "База № 4", "site_id": 151, "parking_cost": 0.0 }, "geometry": { "type": "Point", "coordinates": [ 88.167605415903736, 69.325089568738434 ] } },
{ "type": "Feature", "properties": { "name": "Механический завод", "site_id": 152, "parking_cost": 0.0 }, "geometry": { "type": "Point", "coordinates": [ 88.213769161043928, 69.317108822209278 ] } },
{ "type": "Feature", "properties": { "name": "УТВГС", "site_id": 153, "parking_cost": 0.0 }, "geometry": { "type": "Point", "coordinates": [ 88.234785655703902, 69.330149279378873 ] } },
{ "type": "Feature", "properties": { "name": "Талнах (Торговый центр) - Кинотеатр", "site_id": 154, "parking_cost": 0.0 }, "geometry": { "type": "Point", "coordinates": [ 88.394758128055557, 69.483313271996934 ] } },
{ "type": "Feature", "properties": { "name": "Корпоративный университет - гипермаркет \"Вега\"", "site_id": 155, "parking_cost": 0.0 }, "geometry": { "type": "Point", "coordinates": [ 88.213317768720529, 69.35163940965549 ] } },
{ "type": "Feature", "properties": { "name": "АТС", "site_id": 156, "parking_cost": 0.0 }, "geometry": { "type": "Point", "coordinates": [ 88.390912043649166, 69.49567959720919 ] } },
{ "type": "Feature", "properties": { "name": "бульвар Влюбленных - улица Дзержинского - улица Московская", "site_id": 157, "parking_cost": 0.0 }, "geometry": { "type": "Point", "coordinates": [ 88.197944610952206, 69.35138134534111 ] } },
{ "type": "Feature", "properties": { "name": "Детская поликлиника - улица Бегичева - улица Нансена д. 102", "site_id": 158, "parking_cost": 0.0 }, "geometry": { "type": "Point", "coordinates": [ 88.174846057756227, 69.363871361580109 ] } },
{ "type": "Feature", "properties": { "name": "Очистные (Норильск-Алыкель)", "site_id": 159, "parking_cost": 0.0 }, "geometry": { "type": "Point", "coordinates": [ 87.913016437354713, 69.322478841720269 ] } },
{ "type": "Feature", "properties": { "name": "Хвосты", "site_id": 160, "parking_cost": 0.0 }, "geometry": { "type": "Point", "coordinates": [ 87.926164137824472, 69.320176752282435 ] } },
{ "type": "Feature", "properties": { "name": "Музей - Авиакассы - Аптека", "site_id": 161, "parking_cost": 0.0 }, "geometry": { "type": "Point", "coordinates": [ 88.205127582118564, 69.347210182995582 ] } },
{ "type": "Feature", "properties": { "name": "Норильский промышленный транспорт - улица Энергетическая", "site_id": 162, "parking_cost": 0.0 }, "geometry": { "type": "Point", "coordinates": [ 88.217888988373872, 69.325201936235572 ] } },
{ "type": "Feature", "properties": { "name": "АБК \"НПОПАТ\" - КИПиА", "site_id": 163, "parking_cost": 0.0 }, "geometry": { "type": "Point", "coordinates": [ 88.203936584487622, 69.310978132167548 ] } },
{ "type": "Feature", "properties": { "name": "УАДиС - Гараж", "site_id": 164, "parking_cost": 0.0 }, "geometry": { "type": "Point", "coordinates": [ 88.185402474536687, 69.321377637136479 ] } },
{ "type": "Feature", "properties": { "name": "Школа № 1 - Дворец культуры", "site_id": 165, "parking_cost": 0.0 }, "geometry": { "type": "Point", "coordinates": [ 88.204812588311597, 69.341659167196696 ] } },
{ "type": "Feature", "properties": { "name": "магазин \"1000 мелочей\" - магазин \"Подсолнух\" - магазин \"Сказка\"", "site_id": 166, "parking_cost": 0.0 }, "geometry": { "type": "Point", "coordinates": [ 88.204969583981821, 69.354914502575554 ] } },
{ "type": "Feature", "properties": { "name": "турбаза \"Надежда\" - турбаза \"Робинзон\"", "site_id": 167, "parking_cost": 0.0 }, "geometry": { "type": "Point", "coordinates": [ 88.343662045383923, 69.435188440806712 ] } },
{ "type": "Feature", "properties": { "name": "рудник \"Маяк\" (северная окраина)", "site_id": 169, "parking_cost": 0.0 }, "geometry": { "type": "Point", "coordinates": [ 88.429697322299461, 69.496872734615053 ] } },
{ "type": "Feature", "properties": { "name": "рудник \"Маяк\" (бетонный завод)", "site_id": 170, "parking_cost": 0.0 }, "geometry": { "type": "Point", "coordinates": [ 88.419372032103595, 69.491316716938286 ] } },
{ "type": "Feature", "properties": { "name": "рудник \"Маяк\" (восточная окраина)", "site_id": 171, "parking_cost": 0.0 }, "geometry": { "type": "Point", "coordinates": [ 88.433170002659466, 69.488815291521391 ] } },
{ "type": "Feature", "properties": { "name": "ШСУ МиМЭГР", "site_id": 172, "parking_cost": 0.0 }, "geometry": { "type": "Point", "coordinates": [ 88.408793569572879, 69.503373641919893 ] } },
{ "type": "Feature", "properties": { "name": "НШСС", "site_id": 173, "parking_cost": 0.0 }, "geometry": { "type": "Point", "coordinates": [ 88.39264377380762, 69.505378957447874 ] } },
{ "type": "Feature", "properties": { "name": "ГРС-2", "site_id": 174, "parking_cost": 0.0 }, "geometry": { "type": "Point", "coordinates": [ 88.346891546803704, 69.504852616355095 ] } },
{ "type": "Feature", "properties": { "name": "Склад горючего ТЭЦ-2", "site_id": 175, "parking_cost": 0.0 }, "geometry": { "type": "Point", "coordinates": [ 88.328772872959519, 69.508053705593099 ] } },
{ "type": "Feature", "properties": { "name": "ТЭЦ-2 (восточная часть)", "site_id": 178, "parking_cost": 0.0 }, "geometry": { "type": "Point", "coordinates": [ 88.347935388706645, 69.521011638123028 ] } },
{ "type": "Feature", "properties": { "name": "рудник \"Октябрьский\" (северная часть)", "site_id": 179, "parking_cost": 0.0 }, "geometry": { "type": "Point", "coordinates": [ 88.326499545779257, 69.538972743963143 ] } },
{ "type": "Feature", "properties": { "name": "рудник \"Октябрьский\" (западная часть)", "site_id": 180, "parking_cost": 0.0 }, "geometry": { "type": "Point", "coordinates": [ 88.314853769561921, 69.539881918962379 ] } },
{ "type": "Feature", "properties": { "name": "ВС-9", "site_id": 181, "parking_cost": 0.0 }, "geometry": { "type": "Point", "coordinates": [ 88.468172530836142, 69.522979461645377 ] } },
{ "type": "Feature", "properties": { "name": "рудник \"Скалистый\"", "site_id": 182, "parking_cost": 0.0 }, "geometry": { "type": "Point", "coordinates": [ 88.463885175798012, 69.537151548589691 ] } },
{ "type": "Feature", "properties": { "name": "гора Отдельная", "site_id": 183, "parking_cost": 0.0 }, "geometry": { "type": "Point", "coordinates": [ 88.464310756620321, 69.488568769070255 ] } },
{ "type": "Feature", "properties": { "name": "Закладочный комплекс (Талнах)", "site_id": 184, "parking_cost": 0.0 }, "geometry": { "type": "Point", "coordinates": [ 88.405903543324627, 69.481835471245006 ] } },
{ "type": "Feature", "properties": { "name": "поселок Валёк (западная часть)", "site_id": 185, "parking_cost": 0.0 }, "geometry": { "type": "Point", "coordinates": [ 88.294735059909101, 69.402346148621703 ] } },
{ "type": "Feature", "properties": { "name": "МЧС", "site_id": 186, "parking_cost": 0.0 }, "geometry": { "type": "Point", "coordinates": [ 88.363687139171518, 69.362865937440617 ] } },
{ "type": "Feature", "properties": { "name": "Совхоз", "site_id": 187, "parking_cost": 0.0 }, "geometry": { "type": "Point", "coordinates": [ 88.260677131974049, 69.346793885306553 ] } },
{ "type": "Feature", "properties": { "name": "Склад пиломатериалов (Вальковское шоссе)", "site_id": 188, "parking_cost": 0.0 }, "geometry": { "type": "Point", "coordinates": [ 88.261562441406426, 69.342205711117714 ] } },
{ "type": "Feature", "properties": { "name": "Норильскснаб", "site_id": 189, "parking_cost": 0.0 }, "geometry": { "type": "Point", "coordinates": [ 88.275856263418348, 69.345674239268547 ] } },
{ "type": "Feature", "properties": { "name": "Коксохим", "site_id": 191, "parking_cost": 0.0 }, "geometry": { "type": "Point", "coordinates": [ 88.242218097861695, 69.309693573593989 ] } },
{ "type": "Feature", "properties": { "name": "РПП-220 \"Приёмная\"", "site_id": 192, "parking_cost": 0.0 }, "geometry": { "type": "Point", "coordinates": [ 88.261721200849919, 69.309843951066227 ] } },
{ "type": "Feature", "properties": { "name": "ОВЦ (восточная часть)", "site_id": 194, "parking_cost": 0.0 }, "geometry": { "type": "Point", "coordinates": [ 88.227710313223042, 69.316379439859247 ] } },
{ "type": "Feature", "properties": { "name": "Склады (Вальковское шоссе)", "site_id": 195, "parking_cost": 0.0 }, "geometry": { "type": "Point", "coordinates": [ 88.24344849069017, 69.334818025815579 ] } },
{ "type": "Feature", "properties": { "name": "Насосная (берег Городского оз.)", "site_id": 199, "parking_cost": 0.0 }, "geometry": { "type": "Point", "coordinates": [ 88.174312501069437, 69.339020122653693 ] } },
{ "type": "Feature", "properties": { "name": "АТО ЦАТК - Норильская Голгофа", "site_id": 200, "parking_cost": 0.0 }, "geometry": { "type": "Point", "coordinates": [ 88.170078865200992, 69.320695447681771 ] } },
{ "type": "Feature", "properties": { "name": "Автотранспортный цех (Горная ул.)", "site_id": 201, "parking_cost": 0.0 }, "geometry": { "type": "Point", "coordinates": [ 88.172624958839137, 69.316865462229615 ] } },
{ "type": "Feature", "properties": { "name": "рудник \"Заполярный\" (восточная часть)", "site_id": 202, "parking_cost": 0.0 }, "geometry": { "type": "Point", "coordinates": [ 88.184762513522173, 69.307048240532083 ] } },
{ "type": "Feature", "properties": { "name": "рудник \"Заполярный\" (южная часть)", "site_id": 203, "parking_cost": 0.0 }, "geometry": { "type": "Point", "coordinates": [ 88.165901083300454, 69.302742552800922 ] } },
{ "type": "Feature", "properties": { "name": "старые угольные шахты при руднике \"Заполярный\"", "site_id": 204, "parking_cost": 0.0 }, "geometry": { "type": "Point", "coordinates": [ 88.15384139456512, 69.307014762277248 ] } },
{ "type": "Feature", "properties": { "name": "терриконы при НОФ", "site_id": 205, "parking_cost": 0.0 }, "geometry": { "type": "Point", "coordinates": [ 88.162074105330646, 69.315197075075616 ] } },
{ "type": "Feature", "properties": { "name": "Кислородная (западная часть)", "site_id": 207, "parking_cost": 0.0 }, "geometry": { "type": "Point", "coordinates": [ 88.155757994359007, 69.334121551185049 ] } },
{ "type": "Feature", "properties": { "name": "Зубгора (южная часть)", "site_id": 209, "parking_cost": 0.0 }, "geometry": { "type": "Point", "coordinates": [ 88.163404609040342, 69.345788166175609 ] } },
{ "type": "Feature", "properties": { "name": "Склады (Зубгора)", "site_id": 210, "parking_cost": 0.0 }, "geometry": { "type": "Point", "coordinates": [ 88.15727493562396, 69.349066598544368 ] } },
{ "type": "Feature", "properties": { "name": "Гаражи (сортировочая станция)", "site_id": 211, "parking_cost": 0.0 }, "geometry": { "type": "Point", "coordinates": [ 88.156666803757361, 69.354618131273128 ] } },
{ "type": "Feature", "properties": { "name": "Сортировочная станция", "site_id": 212, "parking_cost": 0.0 }, "geometry": { "type": "Point", "coordinates": [ 88.144345846433424, 69.352909636971177 ] } },
{ "type": "Feature", "properties": { "name": "рудник \"Ангидрит\"", "site_id": 214, "parking_cost": 0.0 }, "geometry": { "type": "Point", "coordinates": [ 88.081235059367799, 69.354303304901734 ] } },
{ "type": "Feature", "properties": { "name": "завод \"Стройкомплект\" (северная часть)", "site_id": 215, "parking_cost": 0.0 }, "geometry": { "type": "Point", "coordinates": [ 88.075083930830573, 69.362335432236534 ] } },
{ "type": "Feature", "properties": { "name": "Медный завод (северная часть)", "site_id": 216, "parking_cost": 0.0 }, "geometry": { "type": "Point", "coordinates": [ 88.134727621692178, 69.36475310852272 ] } },
{ "type": "Feature", "properties": { "name": "Медный завод (склад готовой продукции)", "site_id": 217, "parking_cost": 0.0 }, "geometry": { "type": "Point", "coordinates": [ 88.151034542562698, 69.361985880470243 ] } },
{ "type": "Feature", "properties": { "name": "Гаражи (Вокзальная ул.)", "site_id": 218, "parking_cost": 0.0 }, "geometry": { "type": "Point", "coordinates": [ 88.158397592633847, 69.360720312256902 ] } },
{ "type": "Feature", "properties": { "name": "Молокозавод", "site_id": 219, "parking_cost": 0.0 }, "geometry": { "type": "Point", "coordinates": [ 88.165968188794892, 69.366936421859791 ] } },
{ "type": "Feature", "properties": { "name": "База Урванцева", "site_id": 222, "parking_cost": 0.0 }, "geometry": { "type": "Point", "coordinates": [ 88.21594145892044, 69.365539417456219 ] } },
{ "type": "Feature", "properties": { "name": "Войсковая часть 13991", "site_id": 223, "parking_cost": 0.0 }, "geometry": { "type": "Point", "coordinates": [ 88.217613127021053, 69.359377195507605 ] } },
{ "type": "Feature", "properties": { "name": "Гаражи - Автодром", "site_id": 224, "parking_cost": 0.0 }, "geometry": { "type": "Point", "coordinates": [ 88.166045288149874, 69.372482861141819 ] } },
{ "type": "Feature", "properties": { "name": "Гаражи (ул. Нансена)", "site_id": 225, "parking_cost": 0.0 }, "geometry": { "type": "Point", "coordinates": [ 88.17931995204242, 69.373935239855967 ] } },
{ "type": "Feature", "properties": { "name": "Объездная дорога", "site_id": 226, "parking_cost": 0.0 }, "geometry": { "type": "Point", "coordinates": [ 88.242623699047726, 69.346594161886145 ] } },
{ "type": "Feature", "properties": { "name": "поселок Купец (западная часть)", "site_id": 228, "parking_cost": 0.0 }, "geometry": { "type": "Point", "coordinates": [ 88.041766245624217, 69.374441153392894 ] } },
{ "type": "Feature", "properties": { "name": "Гидроэлектромонтаж (северная часть)", "site_id": 229, "parking_cost": 0.0 }, "geometry": { "type": "Point", "coordinates": [ 88.07041061589014, 69.377879165222609 ] } },
{ "type": "Feature", "properties": { "name": "Насосная (ЦБК)", "site_id": 230, "parking_cost": 0.0 }, "geometry": { "type": "Point", "coordinates": [ 87.986794539514406, 69.339400508518452 ] } },
{ "type": "Feature", "properties": { "name": "УТЗ БПО", "site_id": 231, "parking_cost": 0.0 }, "geometry": { "type": "Point", "coordinates": [ 87.987807032542534, 69.314233341360904 ] } },
{ "type": "Feature", "properties": { "name": "Гаражи (ЦБК)", "site_id": 232, "parking_cost": 0.0 }, "geometry": { "type": "Point", "coordinates": [ 87.990733524082898, 69.325491726486291 ] } },
{ "type": "Feature", "properties": { "name": "ТЭЦ-3", "site_id": 233, "parking_cost": 0.0 }, "geometry": { "type": "Point", "coordinates": [ 87.953219097728706, 69.322893447565974 ] } },
{ "type": "Feature", "properties": { "name": "Надеждинский комбинат (северная часть)", "site_id": 234, "parking_cost": 0.0 }, "geometry": { "type": "Point", "coordinates": [ 87.936859904153181, 69.333264381515917 ] } },
{ "type": "Feature", "properties": { "name": "Брызгальные бассейны", "site_id": 235, "parking_cost": 0.0 }, "geometry": { "type": "Point", "coordinates": [ 87.935268661085644, 69.324099901683311 ] } },
{ "type": "Feature", "properties": { "name": "Каларгон (западная часть)", "site_id": 236, "parking_cost": 0.0 }, "geometry": { "type": "Point", "coordinates": [ 87.786427375636848, 69.342182120518402 ] } },
{ "type": "Feature", "properties": { "name": "Кайеркан (ТБК, южная часть)", "site_id": 237, "parking_cost": 0.0 }, "geometry": { "type": "Point", "coordinates": [ 87.76341431969071, 69.341893582786867 ] } },
{ "type": "Feature", "properties": { "name": "Гаражи (Кайеркан)", "site_id": 238, "parking_cost": 0.0 }, "geometry": { "type": "Point", "coordinates": [ 87.74802147524089, 69.346227937538217 ] } },
{ "type": "Feature", "properties": { "name": "станция Кайеркан", "site_id": 239, "parking_cost": 0.0 }, "geometry": { "type": "Point", "coordinates": [ 87.728536262810522, 69.354045221696026 ] } },
{ "type": "Feature", "properties": { "name": "Склад горючего (поворот на Дудинку)", "site_id": 241, "parking_cost": 0.0 }, "geometry": { "type": "Point", "coordinates": [ 87.359567895703393, 69.37896735399022 ] } },
{ "type": "Feature", "properties": { "name": "Оганер-промзона", "site_id": 243, "parking_cost": 0.0 }, "geometry": { "type": "Point", "coordinates": [ 88.382249917612612, 69.354024882253 ] } },
{ "type": "Feature", "properties": { "name": "Норильскгеология", "site_id": 244, "parking_cost": 0.0 }, "geometry": { "type": "Point", "coordinates": [ 88.294704644924067, 69.534271831030168 ] } },
{ "type": "Feature", "properties": { "name": "ВС-7 рудника \"Таймырский\"", "site_id": 245, "parking_cost": 0.0 }, "geometry": { "type": "Point", "coordinates": [ 88.385038460472558, 69.542628795807644 ] } },
{ "type": "Feature", "properties": { "name": "ВС-5 и ВС-6 рудника \"Таймырский\"", "site_id": 246, "parking_cost": 0.0 }, "geometry": { "type": "Point", "coordinates": [ 88.358274508998718, 69.542961388462416 ] } },
{ "type": "Feature", "properties": { "name": "ВС-3 рудника \"Октябрьский\"", "site_id": 247, "parking_cost": 0.0 }, "geometry": { "type": "Point", "coordinates": [ 88.328545521116766, 69.545992532527663 ] } },
{ "type": "Feature", "properties": { "name": "ВС-1, ВС-2 и ВС-4 рудника \"Октябрьский\"", "site_id": 248, "parking_cost": 0.0 }, "geometry": { "type": "Point", "coordinates": [ 88.312031544483403, 69.551625652768962 ] } },
{ "type": "Feature", "properties": { "name": "городская свалка Талнаха", "site_id": 249, "parking_cost": 0.0 }, "geometry": { "type": "Point", "coordinates": [ 88.290088206682896, 69.557203990730045 ] } },
{ "type": "Feature", "properties": { "name": "карьер \"Скальный\"", "site_id": 250, "parking_cost": 0.0 }, "geometry": { "type": "Point", "coordinates": [ 88.316428062018161, 69.574206363421666 ] } },
{ "type": "Feature", "properties": { "name": "База №4 (восточная часть)", "site_id": 251, "parking_cost": 0.0 }, "geometry": { "type": "Point", "coordinates": [ 88.185166591416888, 69.326912775709886 ] } },
{ "type": "Feature", "properties": { "name": "Склады (Октябрьская ул.)", "site_id": 252, "parking_cost": 0.0 }, "geometry": { "type": "Point", "coordinates": [ 88.196246114400054, 69.325573413249344 ] } },
{ "type": "Feature", "properties": { "name": "рудник известняков (Кайеркан)", "site_id": 253, "parking_cost": 0.0 }, "geometry": { "type": "Point", "coordinates": [ 87.800200299627207, 69.352539876983371 ] } },
{ "type": "Feature", "properties": { "name": "База Кайерканторга", "site_id": 254, "parking_cost": 0.0 }, "geometry": { "type": "Point", "coordinates": [ 87.805550017390956, 69.347666298661252 ] } },
{ "type": "Feature", "properties": { "name": "отстойники никелевого концентрата", "site_id": 255, "parking_cost": 0.0 }, "geometry": { "type": "Point", "coordinates": [ 88.193921835300941, 69.313003337329164 ] } },
{ "type": "Feature", "properties": { "name": "шлакоотвал никелевого завода", "site_id": 256, "parking_cost": 0.0 }, "geometry": { "type": "Point", "coordinates": [ 88.239296406355706, 69.316321741563769 ] } },
{ "type": "Feature", "properties": { "name": "УТВГС (южная часть)", "site_id": 257, "parking_cost": 0.0 }, "geometry": { "type": "Point", "coordinates": [ 88.230431584084826, 69.326731197884456 ] } },
{ "type": "Feature", "properties": { "name": "Соцгород (северная часть)", "site_id": 258, "parking_cost": 0.0 }, "geometry": { "type": "Point", "coordinates": [ 88.211334122505647, 69.336069777851449 ] } },
{ "type": "Feature", "properties": { "name": "Красные камни", "site_id": 260, "parking_cost": 0.0 }, "geometry": { "type": "Point", "coordinates": [ 88.482659429969829, 69.484268967421329 ] } },
{ "type": "Feature", "properties": { "name": "ЗВС рудника \"Комсомольский\"", "site_id": 261, "parking_cost": 0.0 }, "geometry": { "type": "Point", "coordinates": [ 88.428649559199187, 69.505228532352916 ] } },
{ "type": "Feature", "properties": { "name": "ВВС рудника \"Комсомольский\"", "site_id": 262, "parking_cost": 0.0 }, "geometry": { "type": "Point", "coordinates": [ 88.455471922861392, 69.504121216632996 ] } },
{ "type": "Feature", "properties": { "name": "СВС рудника \"Комсомольский\"", "site_id": 263, "parking_cost": 0.0 }, "geometry": { "type": "Point", "coordinates": [ 88.441111169411244, 69.514279412382891 ] } },
{ "type": "Feature", "properties": { "name": "рудник \"Комсомольский\"", "site_id": 264, "parking_cost": 0.0 }, "geometry": { "type": "Point", "coordinates": [ 88.397388496120968, 69.502102640182486 ] } },
{ "type": "Feature", "properties": { "name": "НШВ", "site_id": 266, "parking_cost": 0.0 }, "geometry": { "type": "Point", "coordinates": [ 88.319108702200126, 69.522826144814132 ] } },
{ "type": "Feature", "properties": { "name": "Норильскгеология (восточная часть)", "site_id": 267, "parking_cost": 0.0 }, "geometry": { "type": "Point", "coordinates": [ 88.305276051927962, 69.539026544493609 ] } },
{ "type": "Feature", "properties": { "name": "отвалы рудника \"Октябрьский\"", "site_id": 268, "parking_cost": 0.0 }, "geometry": { "type": "Point", "coordinates": [ 88.317628745891781, 69.544612493091364 ] } },
{ "type": "Feature", "properties": { "name": "ВС-10 рудника \"Скалистый\"", "site_id": 269, "parking_cost": 0.0 }, "geometry": { "type": "Point", "coordinates": [ 88.480565644699084, 69.551014943831419 ] } },
{ "type": "Feature", "properties": { "name": "городская свалка (Норильск)", "site_id": 270, "parking_cost": 0.0 }, "geometry": { "type": "Point", "coordinates": [ 88.183452879287984, 69.383322150012646 ] } },
{ "type": "Feature", "properties": { "name": "Кайеркан (ТБК)", "site_id": 272, "parking_cost": 0.0 }, "geometry": { "type": "Point", "coordinates": [ 87.768269108811225, 69.34505671731516 ] } },
{ "type": "Feature", "properties": { "name": "Аэропорт \"Норильск\" (ВПП)", "site_id": 273, "parking_cost": 0.0 }, "geometry": { "type": "Point", "coordinates": [ 87.325392377165173, 69.31359971085736 ] } },
{ "type": "Feature", "properties": { "name": "Механический завод (Талнах)", "site_id": 176, "parking_cost": 0.0 }, "geometry": { "type": "Point", "coordinates": [ 88.3755878264937, 69.510347484160576 ] } },
{ "type": "Feature", "properties": { "name": "Промзона между ТЭЦ-2 и ТОФ", "site_id": 276, "parking_cost": 0.0 }, "geometry": { "type": "Point", "coordinates": [ 88.356478601281097, 69.512668295216031 ] } },
{ "type": "Feature", "properties": { "name": "промплощадка ГРС", "site_id": 227, "parking_cost": 0.0 }, "geometry": { "type": "Point", "coordinates": [ 88.259343707036166, 69.354489355468971 ] } },
{ "type": "Feature", "properties": { "name": "Гаражи (Хантайская ул.)", "site_id": 220, "parking_cost": 0.0 }, "geometry": { "type": "Point", "coordinates": [ 88.187716284592256, 69.36761177378979 ] } },
{ "type": "Feature", "properties": { "name": "Пирротинохранилище №2", "site_id": 213, "parking_cost": 0.0 }, "geometry": { "type": "Point", "coordinates": [ 88.11575864493436, 69.354713908438271 ] } },
{ "type": "Feature", "properties": { "name": "Нефтебаза - Дробильно-сортировочная фабрика", "site_id": 240, "parking_cost": 0.0 }, "geometry": { "type": "Point", "coordinates": [ 87.751694387092869, 69.374785382168497 ] } },
{ "type": "Feature", "properties": { "name": "Склад горючего ТЭЦ-1", "site_id": 190, "parking_cost": 0.0 }, "geometry": { "type": "Point", "coordinates": [ 88.250547123232593, 69.328857261693869 ] } },
{ "type": "Feature", "properties": { "name": "Пирротинохранилище №1", "site_id": 206, "parking_cost": 0.0 }, "geometry": { "type": "Point", "coordinates": [ 88.14641745234475, 69.327606290996144 ] } },
{ "type": "Feature", "properties": { "name": "Аглофабрика", "site_id": 193, "parking_cost": 0.0 }, "geometry": { "type": "Point", "coordinates": [ 88.217510398769519, 69.311413142797946 ] } },
{ "type": "Feature", "properties": { "name": "Складское хозяйство (северная часть)", "site_id": 197, "parking_cost": 0.0 }, "geometry": { "type": "Point", "coordinates": [ 88.177306477006724, 69.335683732432457 ] } }
]
}
