{
"type": "FeatureCollection",
"name": "transport_districts_points",
"crs": { "type": "name", "properties": { "name": "urn:ogc:def:crs:OGC:1.3:CRS84" } },
"features": [
{ "type": "Feature", "properties": { "dist_id": 63, "name": "Далдыкан" }, "geometry": { "type": "Point", "coordinates": [ 87.871019787723966, 69.32912514487856 ] } },
{ "type": "Feature", "properties": { "dist_id": 1, "name": "Насосная" }, "geometry": { "type": "Point", "coordinates": [ 88.040608127923448, 69.351971906884387 ] } },
{ "type": "Feature", "properties": { "dist_id": 2, "name": "АДЦ" }, "geometry": { "type": "Point", "coordinates": [ 88.166525618222025, 69.3594655831388 ] } },
{ "type": "Feature", "properties": { "dist_id": 3, "name": "Городская больница № 1" }, "geometry": { "type": "Point", "coordinates": [ 88.40818299744015, 69.358548892285668 ] } },
{ "type": "Feature", "properties": { "dist_id": 4, "name": "Амбарная" }, "geometry": { "type": "Point", "coordinates": [ 87.518656998991588, 69.376944084472612 ] } },
{ "type": "Feature", "properties": { "dist_id": 5, "name": "Гидропорт \"Валек\"" }, "geometry": { "type": "Point", "coordinates": [ 88.365844819501788, 69.393632971123296 ] } },
{ "type": "Feature", "properties": { "dist_id": 6, "name": "Талнах: поликлиника - горноспасательная часть" }, "geometry": { "type": "Point", "coordinates": [ 88.396691704000148, 69.489926569370951 ] } },
{ "type": "Feature", "properties": { "dist_id": 9, "name": "Детская поликлиника - улица Бегичева - улица Нансена" }, "geometry": { "type": "Point", "coordinates": [ 88.174846057756227, 69.363871361580109 ] } },
{ "type": "Feature", "properties": { "dist_id": 10, "name": "Норильский почтамт - улица Комсомольская" }, "geometry": { "type": "Point", "coordinates": [ 88.184523856538874, 69.350258902190717 ] } },
{ "type": "Feature", "properties": { "dist_id": 11, "name": "площадь Металлургов" }, "geometry": { "type": "Point", "coordinates": [ 88.18243584973753, 69.357649459100585 ] } },
{ "type": "Feature", "properties": { "dist_id": 12, "name": "Дворец спорта \"Арктика\" - Гвардейская площадь" }, "geometry": { "type": "Point", "coordinates": [ 88.203452590289928, 69.342452976471549 ] } },
{ "type": "Feature", "properties": { "dist_id": 13, "name": "Городской парк - Музей" }, "geometry": { "type": "Point", "coordinates": [ 88.199231083696034, 69.34652324585025 ] } },
{ "type": "Feature", "properties": { "dist_id": 14, "name": "Талнахская улица - улица Ветеранов" }, "geometry": { "type": "Point", "coordinates": [ 88.227004015270339, 69.343762299120002 ] } },
{ "type": "Feature", "properties": { "dist_id": 15, "name": "Театр драмы" }, "geometry": { "type": "Point", "coordinates": [ 88.196004969806737, 69.352377511507598 ] } },
{ "type": "Feature", "properties": { "dist_id": 16, "name": "Больничный городок - улица Павлова" }, "geometry": { "type": "Point", "coordinates": [ 88.216464273285965, 69.349376400582102 ] } },
{ "type": "Feature", "properties": { "dist_id": 17, "name": "площадь Газовиков" }, "geometry": { "type": "Point", "coordinates": [ 88.195040356728512, 69.363156110906999 ] } },
{ "type": "Feature", "properties": { "dist_id": 18, "name": "Талнахская улица - улица Лауреатов" }, "geometry": { "type": "Point", "coordinates": [ 88.207232627309679, 69.356757941486947 ] } },
{ "type": "Feature", "properties": { "dist_id": 19, "name": "Талнах: площадь Горняков - Спортивная улица" }, "geometry": { "type": "Point", "coordinates": [ 88.381345213380158, 69.486227693246477 ] } },
{ "type": "Feature", "properties": { "dist_id": 20, "name": "Талнах: Рудная улица" }, "geometry": { "type": "Point", "coordinates": [ 88.408875970433783, 69.490212559092782 ] } },
{ "type": "Feature", "properties": { "dist_id": 21, "name": "Талнах: микрорайон 4а" }, "geometry": { "type": "Point", "coordinates": [ 88.363636736237098, 69.495648370084552 ] } },
{ "type": "Feature", "properties": { "dist_id": 22, "name": "Талнах: микрорайоны 4 и 4р" }, "geometry": { "type": "Point", "coordinates": [ 88.379192522570264, 69.493847057165667 ] } },
{ "type": "Feature", "properties": { "dist_id": 23, "name": "Талнах: микрорайон 5" }, "geometry": { "type": "Point", "coordinates": [ 88.400199587194649, 69.497146251887472 ] } },
{ "type": "Feature", "properties": { "dist_id": 25, "name": "Нефтебаза - Дробильно-сортировочная фабрика" }, "geometry": { "type": "Point", "coordinates": [ 87.751694387092869, 69.374785382168497 ] } },
{ "type": "Feature", "properties": { "dist_id": 26, "name": "НОФ - Рудник \"Заполярный\"" }, "geometry": { "type": "Point", "coordinates": [ 88.171197264549093, 69.308696740746598 ] } },
{ "type": "Feature", "properties": { "dist_id": 27, "name": "УАДиС - Рудоуправление" }, "geometry": { "type": "Point", "coordinates": [ 88.168506516131643, 69.324470349867454 ] } },
{ "type": "Feature", "properties": { "dist_id": 28, "name": "Нефтебаза - Складское хозяйство" }, "geometry": { "type": "Point", "coordinates": [ 88.16936285330344, 69.335488250944451 ] } },
{ "type": "Feature", "properties": { "dist_id": 29, "name": "Механический завод - ОВЦ - НПОПАТ" }, "geometry": { "type": "Point", "coordinates": [ 88.213268922674715, 69.315421029790244 ] } },
{ "type": "Feature", "properties": { "dist_id": 30, "name": "ХКЦ - Цементный завод - Норильсктрансремонт" }, "geometry": { "type": "Point", "coordinates": [ 88.247275121265744, 69.316061848990984 ] } },
{ "type": "Feature", "properties": { "dist_id": 31, "name": "ТЭЦ-1 - УТВГС" }, "geometry": { "type": "Point", "coordinates": [ 88.238339176885049, 69.330211944584377 ] } },
{ "type": "Feature", "properties": { "dist_id": 32, "name": "Соцгород" }, "geometry": { "type": "Point", "coordinates": [ 88.206591376123754, 69.331527482339197 ] } },
{ "type": "Feature", "properties": { "dist_id": 33, "name": "Энергетическая улица" }, "geometry": { "type": "Point", "coordinates": [ 88.216559885819748, 69.32648555649638 ] } },
{ "type": "Feature", "properties": { "dist_id": 34, "name": "Газоспасательная служба - Вальковское шоссе" }, "geometry": { "type": "Point", "coordinates": [ 88.24065564914693, 69.338461140824947 ] } },
{ "type": "Feature", "properties": { "dist_id": 35, "name": "ГРС - Совхоз" }, "geometry": { "type": "Point", "coordinates": [ 88.264127577986514, 69.350322555778007 ] } },
{ "type": "Feature", "properties": { "dist_id": 36, "name": "турбаза \"Оганер\" - Наледная - лыжная база \"Оль-гуль\"" }, "geometry": { "type": "Point", "coordinates": [ 88.334636304278675, 69.369198816048197 ] } },
{ "type": "Feature", "properties": { "dist_id": 37, "name": "жилой район Оганер" }, "geometry": { "type": "Point", "coordinates": [ 88.372314687625874, 69.357374878060043 ] } },
{ "type": "Feature", "properties": { "dist_id": 38, "name": "Турбазы \"Сияние\" и \"Лазурная\" - Профилакторий" }, "geometry": { "type": "Point", "coordinates": [ 88.343430010749245, 69.390732740982543 ] } },
{ "type": "Feature", "properties": { "dist_id": 39, "name": "Поселок Валёк - Промхоз" }, "geometry": { "type": "Point", "coordinates": [ 88.301685977984974, 69.405937335273819 ] } },
{ "type": "Feature", "properties": { "dist_id": 40, "name": "Водозабор - Турбазы \"Чайка\", Голубые Озёра\", \"Робинзон\", \"Надежда\"" }, "geometry": { "type": "Point", "coordinates": [ 88.330210489844063, 69.428581918806572 ] } },
{ "type": "Feature", "properties": { "dist_id": 41, "name": "Турбазы \"Березка\", \"Спортивная\", \"Жарки\"" }, "geometry": { "type": "Point", "coordinates": [ 88.371281509839832, 69.453748844154589 ] } },
{ "type": "Feature", "properties": { "dist_id": 42, "name": "Талнах: торговый центр - кинотеатр" }, "geometry": { "type": "Point", "coordinates": [ 88.398352645290871, 69.482570452811586 ] } },
{ "type": "Feature", "properties": { "dist_id": 43, "name": "Рудник \"Маяк\" - Горнолыжный комплекс \"Гора Отдельная\"" }, "geometry": { "type": "Point", "coordinates": [ 88.451332511343082, 69.487911990204566 ] } },
{ "type": "Feature", "properties": { "dist_id": 44, "name": "рудник \"Октябрьский\" - ТЭЦ-2" }, "geometry": { "type": "Point", "coordinates": [ 88.339112861436874, 69.518940874052447 ] } },
{ "type": "Feature", "properties": { "dist_id": 45, "name": "ТОФ - Очистные" }, "geometry": { "type": "Point", "coordinates": [ 88.353066624652357, 69.50535548086647 ] } },
{ "type": "Feature", "properties": { "dist_id": 47, "name": "Рудник \"Скалистый\"" }, "geometry": { "type": "Point", "coordinates": [ 88.469082594100172, 69.539114110526526 ] } },
{ "type": "Feature", "properties": { "dist_id": 48, "name": "Оптовая база - Кладбище - Северная объездная дорога" }, "geometry": { "type": "Point", "coordinates": [ 88.231379355395731, 69.354743004031207 ] } },
{ "type": "Feature", "properties": { "dist_id": 49, "name": "Молокозавод - Гаражи - Городская свалка" }, "geometry": { "type": "Point", "coordinates": [ 88.17624225469919, 69.373394956193565 ] } },
{ "type": "Feature", "properties": { "dist_id": 50, "name": "ЗЖБИ" }, "geometry": { "type": "Point", "coordinates": [ 88.081957548826281, 69.358160382564009 ] } },
{ "type": "Feature", "properties": { "dist_id": 51, "name": "Хранилище \"Лебяжье\" - Посёлок Купец" }, "geometry": { "type": "Point", "coordinates": [ 88.068538855886246, 69.37055919137515 ] } },
{ "type": "Feature", "properties": { "dist_id": 52, "name": "Медный завод - Станция Норильск" }, "geometry": { "type": "Point", "coordinates": [ 88.132834013169912, 69.359236754962211 ] } },
{ "type": "Feature", "properties": { "dist_id": 53, "name": "Завод \"Тисма\" - Брызгалы" }, "geometry": { "type": "Point", "coordinates": [ 87.987055223799857, 69.319914863107826 ] } },
{ "type": "Feature", "properties": { "dist_id": 54, "name": "АБК \"Южный\" - ЦБК" }, "geometry": { "type": "Point", "coordinates": [ 87.949860638519596, 69.329161854347959 ] } },
{ "type": "Feature", "properties": { "dist_id": 55, "name": "Каларгон" }, "geometry": { "type": "Point", "coordinates": [ 87.79994576675584, 69.345504575843549 ] } },
{ "type": "Feature", "properties": { "dist_id": 56, "name": "Кайеркан: ТБК" }, "geometry": { "type": "Point", "coordinates": [ 87.766569636829004, 69.343949539648108 ] } },
{ "type": "Feature", "properties": { "dist_id": 57, "name": "Кайеркан: улица Победы - улица Строительная" }, "geometry": { "type": "Point", "coordinates": [ 87.759023658025782, 69.349294619176177 ] } },
{ "type": "Feature", "properties": { "dist_id": 58, "name": "Кайеркан: улица Первомайская" }, "geometry": { "type": "Point", "coordinates": [ 87.742338785144497, 69.354680743565851 ] } },
{ "type": "Feature", "properties": { "dist_id": 59, "name": "Поворот на аэропорт - Склад горючего" }, "geometry": { "type": "Point", "coordinates": [ 87.365746571589725, 69.375674789772177 ] } },
{ "type": "Feature", "properties": { "dist_id": 60, "name": "Аэропорт \"Норильск\"" }, "geometry": { "type": "Point", "coordinates": [ 87.327691498024308, 69.315614994132929 ] } },
{ "type": "Feature", "properties": { "dist_id": 61, "name": "Зубгора" }, "geometry": { "type": "Point", "coordinates": [ 88.167306268722385, 69.350606675912957 ] } },
{ "type": "Feature", "properties": { "dist_id": 62, "name": "Рудник \"Комсомольский\"" }, "geometry": { "type": "Point", "coordinates": [ 88.41521188298988, 69.504132057152233 ] } },
{ "type": "Feature", "properties": { "dist_id": 24, "name": "Рудник \"Таймырский\" - Рудник \"Октябрьский\"" }, "geometry": { "type": "Point", "coordinates": [ 88.319621267228015, 69.546005632358373 ] } },
{ "type": "Feature", "properties": { "dist_id": 8, "name": "Институт - Детская больница - Хлебозавод" }, "geometry": { "type": "Point", "coordinates": [ 88.217634553231989, 69.339393918156759 ] } }
]
}
